[
  {
    "airport_id": 93,
    "name": "Montreal Intl Mirabel",
    "city": "Montreal",
    "country": "Canada",
    "iata_faa": "YMX",
    "iaco": "CYMX",
    "latitude": 45.681944,
    "longitude": -74.005278,
    "altitude": 270,
    "zone": -5,
    "dst": "A",
    "miles": 2137,
    "cost": 718
  },
  {
    "airport_id": 100,
    "name": "Ottawa Macdonald Cartier Intl",
    "city": "Ottawa",
    "country": "Canada",
    "iata_faa": "YOW",
    "iaco": "CYOW",
    "latitude": 45.3225,
    "longitude": -75.669167,
    "altitude": 374,
    "zone": -5,
    "dst": "A",
    "miles": 2068,
    "cost": 680
  },
  {
    "airport_id": 111,
    "name": "Quebec Jean Lesage Intl",
    "city": "Quebec",
    "country": "Canada",
    "iata_faa": "YQB",
    "iaco": "CYQB",
    "latitude": 46.791111,
    "longitude": -71.393333,
    "altitude": 244,
    "zone": -5,
    "dst": "A",
    "miles": 2234,
    "cost": 746
  },
  {
    "airport_id": 120,
    "name": "Regina Intl",
    "city": "Regina",
    "country": "Canada",
    "iata_faa": "YQR",
    "iaco": "CYQR",
    "latitude": 50.431944,
    "longitude": -104.665833,
    "altitude": 1894,
    "zone": -6,
    "dst": "N",
    "miles": 722,
    "cost": 621
  },
  {
    "airport_id": 156,
    "name": "Vancouver Intl",
    "city": "Vancouver",
    "country": "Canada",
    "iata_faa": "YVR",
    "iaco": "CYVR",
    "latitude": 49.193889,
    "longitude": -123.184444,
    "altitude": 14,
    "zone": -8,
    "dst": "A",
    "miles": 276,
    "cost": 553
  },
  {
    "airport_id": 160,
    "name": "Winnipeg Intl",
    "city": "Winnipeg",
    "country": "Canada",
    "iata_faa": "YWG",
    "iaco": "CYWG",
    "latitude": 49.910036,
    "longitude": -97.239886,
    "altitude": 783,
    "zone": -6,
    "dst": "A",
    "miles": 1036,
    "cost": 602
  },
  {
    "airport_id": 178,
    "name": "Calgary Intl",
    "city": "Calgary",
    "country": "Canada",
    "iata_faa": "YYC",
    "iaco": "CYYC",
    "latitude": 51.113888,
    "longitude": -114.020278,
    "altitude": 3557,
    "zone": -7,
    "dst": "A",
    "miles": 407,
    "cost": 616
  },
  {
    "airport_id": 184,
    "name": "Victoria Intl",
    "city": "Victoria",
    "country": "Canada",
    "iata_faa": "YYJ",
    "iaco": "CYYJ",
    "latitude": 48.646944,
    "longitude": -123.425833,
    "altitude": 63,
    "zone": -8,
    "dst": "A",
    "miles": 259,
    "cost": 621
  },
  {
    "airport_id": 193,
    "name": "Lester B Pearson Intl",
    "city": "Toronto",
    "country": "Canada",
    "iata_faa": "YYZ",
    "iaco": "CYYZ",
    "latitude": 43.677223,
    "longitude": -79.630556,
    "altitude": 569,
    "zone": -5,
    "dst": "A",
    "miles": 1919,
    "cost": 694
  },
  {
    "airport_id": 415,
    "name": "Tallinn",
    "city": "Tallinn-ulemiste International",
    "country": "Estonia",
    "iata_faa": "TLL",
    "iaco": "EETN",
    "latitude": 59.413317,
    "longitude": 24.832844,
    "altitude": 131,
    "zone": 2,
    "dst": "E",
    "miles": 4856,
    "cost": 934
  },
  {
    "airport_id": 797,
    "name": "Cape Town Intl",
    "city": "Cape Town",
    "country": "South Africa",
    "iata_faa": "CPT",
    "iaco": "FACT",
    "latitude": -33.964806,
    "longitude": 18.601667,
    "altitude": 151,
    "zone": 2,
    "dst": "U",
    "miles": 10082,
    "cost": 1258
  },
  {
    "airport_id": 813,
    "name": "Johannesburg Intl",
    "city": "Johannesburg",
    "country": "South Africa",
    "iata_faa": "JNB",
    "iaco": "FAJS",
    "latitude": -26.139166,
    "longitude": 28.246,
    "altitude": 5558,
    "zone": 2,
    "dst": "U",
    "miles": 10176,
    "cost": 1288
  },
  {
    "airport_id": 1382,
    "name": "Charles De Gaulle",
    "city": "Paris",
    "country": "France",
    "iata_faa": "CDG",
    "iaco": "LFPG",
    "latitude": 49.012779,
    "longitude": 2.55,
    "altitude": 392,
    "zone": 1,
    "dst": "E",
    "miles": 4983,
    "cost": 991
  },
  {
    "airport_id": 1800,
    "name": "Cozumel Intl",
    "city": "Cozumel",
    "country": "Mexico",
    "iata_faa": "CZM",
    "iaco": "MMCZ",
    "latitude": 20.522403,
    "longitude": -86.925644,
    "altitude": 15,
    "zone": -6,
    "dst": "S",
    "miles": 2540,
    "cost": 670
  },
  {
    "airport_id": 1826,
    "name": "General Rafael Buelna Intl",
    "city": "Mazatlan",
    "country": "Mexico",
    "iata_faa": "MZT",
    "iaco": "MMMZ",
    "latitude": 23.161356,
    "longitude": -106.266072,
    "altitude": 38,
    "zone": -7,
    "dst": "S",
    "miles": 1750,
    "cost": 624
  },
  {
    "airport_id": 1836,
    "name": "Licenciado Gustavo Diaz Ordaz Intl",
    "city": "Puerto Vallarta",
    "country": "Mexico",
    "iata_faa": "PVR",
    "iaco": "MMPR",
    "latitude": 20.680083,
    "longitude": -105.254167,
    "altitude": 23,
    "zone": -6,
    "dst": "S",
    "miles": 1933,
    "cost": 719
  },
  {
    "airport_id": 1840,
    "name": "Los Cabos Intl",
    "city": "San Jose Del Cabo",
    "country": "Mexico",
    "iata_faa": "SJD",
    "iaco": "MMSD",
    "latitude": 23.15185,
    "longitude": -109.721044,
    "altitude": 374,
    "zone": -7,
    "dst": "S",
    "miles": 1681,
    "cost": 770
  },
  {
    "airport_id": 1847,
    "name": "General Abelardo L Rodriguez Intl",
    "city": "Tijuana",
    "country": "Mexico",
    "iata_faa": "TIJ",
    "iaco": "MMTJ",
    "latitude": 32.541064,
    "longitude": -116.970158,
    "altitude": 489,
    "zone": -8,
    "dst": "S",
    "miles": 955,
    "cost": 672
  },
  {
    "airport_id": 1852,
    "name": "Cancun Intl",
    "city": "Cancun",
    "country": "Mexico",
    "iata_faa": "CUN",
    "iaco": "MMUN",
    "latitude": 21.036528,
    "longitude": -86.877083,
    "altitude": 20,
    "zone": -6,
    "dst": "S",
    "miles": 2514,
    "cost": 846
  },
  {
    "airport_id": 2170,
    "name": "Queen Alia Intl",
    "city": "Amman",
    "country": "Jordan",
    "iata_faa": "AMM",
    "iaco": "OJAI",
    "latitude": 31.722556,
    "longitude": 35.993214,
    "altitude": 2395,
    "zone": 2,
    "dst": "E",
    "miles": 6830,
    "cost": 1045
  },
  {
    "airport_id": 2172,
    "name": "Aqaba King Hussein Intl",
    "city": "Aqaba",
    "country": "Jordan",
    "iata_faa": "AQJ",
    "iaco": "OJAQ",
    "latitude": 29.611619,
    "longitude": 35.018067,
    "altitude": 175,
    "zone": 2,
    "dst": "E",
    "miles": 6952,
    "cost": 1207
  },
  {
    "airport_id": 2370,
    "name": "Jeju Intl",
    "city": "Cheju",
    "country": "South Korea",
    "iata_faa": "CJU",
    "iaco": "RKPC",
    "latitude": 33.511306,
    "longitude": 126.493028,
    "altitude": 118,
    "zone": 9,
    "dst": "U",
    "miles": 5580,
    "cost": 918
  },
  {
    "airport_id": 2372,
    "name": "Gimhae Intl",
    "city": "Busan",
    "country": "South Korea",
    "iata_faa": "PUS",
    "iaco": "RKPK",
    "latitude": 35.179528,
    "longitude": 128.938222,
    "altitude": 6,
    "zone": 9,
    "dst": "U",
    "miles": 5402,
    "cost": 1099
  },
  {
    "airport_id": 3205,
    "name": "Tansonnhat Intl",
    "city": "Ho Chi Minh City",
    "country": "Vietnam",
    "iata_faa": "SGN",
    "iaco": "VVTS",
    "latitude": 10.818797,
    "longitude": 106.651856,
    "altitude": 33,
    "zone": 7,
    "dst": "U",
    "miles": 7585,
    "cost": 1135
  },
  {
    "airport_id": 3339,
    "name": "Melbourne Intl",
    "city": "Melbourne",
    "country": "Australia",
    "iata_faa": "MEL",
    "iaco": "YMML",
    "latitude": -37.673333,
    "longitude": 144.843333,
    "altitude": 434,
    "zone": 10,
    "dst": "O",
    "miles": 8289,
    "cost": 1154
  },
  {
    "airport_id": 3341,
    "name": "Adelaide Intl",
    "city": "Adelaide",
    "country": "Australia",
    "iata_faa": "ADL",
    "iaco": "YPAD",
    "latitude": -34.945,
    "longitude": 138.530556,
    "altitude": 20,
    "zone": 9.5,
    "dst": "O",
    "miles": 8456,
    "cost": 1227
  },
  {
    "airport_id": 3361,
    "name": "Sydney Intl",
    "city": "Sydney",
    "country": "Australia",
    "iata_faa": "SYD",
    "iaco": "YSSY",
    "latitude": -33.946111,
    "longitude": 151.177222,
    "altitude": 21,
    "zone": 10,
    "dst": "O",
    "miles": 7852,
    "cost": 1295
  },
  {
    "airport_id": 3448,
    "name": "General Edward Lawrence Logan Intl",
    "city": "Boston",
    "country": "United States",
    "iata_faa": "BOS",
    "iaco": "KBOS",
    "latitude": 42.364347,
    "longitude": -71.005181,
    "altitude": 19,
    "zone": -5,
    "dst": "A",
    "miles": 2357,
    "cost": 842
  },
  {
    "airport_id": 3469,
    "name": "San Francisco Intl",
    "city": "San Francisco",
    "country": "United States",
    "iata_faa": "SFO",
    "iaco": "KSFO",
    "latitude": 37.618972,
    "longitude": -122.374889,
    "altitude": 13,
    "zone": -8,
    "dst": "A",
    "miles": 620,
    "cost": 642
  },
  {
    "airport_id": 3484,
    "name": "Los Angeles Intl",
    "city": "Los Angeles",
    "country": "United States",
    "iata_faa": "LAX",
    "iaco": "KLAX",
    "latitude": 33.942536,
    "longitude": -118.408075,
    "altitude": 126,
    "zone": -8,
    "dst": "A",
    "miles": 852,
    "cost": 602
  },
  {
    "airport_id": 3492,
    "name": "Juneau Intl",
    "city": "Juneau",
    "country": "United States",
    "iata_faa": "JNU",
    "iaco": "PAJN",
    "latitude": 58.354972,
    "longitude": -134.576278,
    "altitude": 21,
    "zone": -9,
    "dst": "A",
    "miles": 1055,
    "cost": 540
  },
  {
    "airport_id": 3577,
    "name": "Seattle Tacoma Intl",
    "city": "Seattle",
    "country": "United States",
    "iata_faa": "SEA",
    "iaco": "KSEA",
    "latitude": 47.449,
    "longitude": -122.309306,
    "altitude": 433,
    "zone": -8,
    "dst": "A",
    "miles": 171,
    "cost": 566
  },
  {
    "airport_id": 3621,
    "name": "San Antonio Intl",
    "city": "San Antonio",
    "country": "United States",
    "iata_faa": "SAT",
    "iaco": "KSAT",
    "latitude": 29.533694,
    "longitude": -98.469778,
    "altitude": 809,
    "zone": -6,
    "dst": "A",
    "miles": 1604,
    "cost": 759
  },
  {
    "airport_id": 3630,
    "name": "Niagara Falls Intl",
    "city": "Niagara Falls",
    "country": "United States",
    "iata_faa": "IAG",
    "iaco": "KIAG",
    "latitude": 43.107333,
    "longitude": -78.946194,
    "altitude": 589,
    "zone": -5,
    "dst": "A",
    "miles": 1964,
    "cost": 813
  },
  {
    "airport_id": 3714,
    "name": "Washington Dulles Intl",
    "city": "Washington",
    "country": "United States",
    "iata_faa": "IAD",
    "iaco": "KIAD",
    "latitude": 38.944533,
    "longitude": -77.455811,
    "altitude": 313,
    "zone": -5,
    "dst": "A",
    "miles": 2152,
    "cost": 747
  },
  {
    "airport_id": 3720,
    "name": "Portland Intl",
    "city": "Portland",
    "country": "United States",
    "iata_faa": "PDX",
    "iaco": "KPDX",
    "latitude": 45.588722,
    "longitude": -122.5975,
    "altitude": 30,
    "zone": -8,
    "dst": "A",
    "miles": 173,
    "cost": 573
  },
  {
    "airport_id": 3728,
    "name": "Honolulu Intl",
    "city": "Honolulu",
    "country": "United States",
    "iata_faa": "HNL",
    "iaco": "PHNL",
    "latitude": 21.318681,
    "longitude": -157.922428,
    "altitude": 13,
    "zone": -10,
    "dst": "N",
    "miles": 2773,
    "cost": 802
  },
  {
    "airport_id": 3731,
    "name": "San Diego Intl",
    "city": "San Diego",
    "country": "United States",
    "iata_faa": "SAN",
    "iaco": "KSAN",
    "latitude": 32.733556,
    "longitude": -117.189667,
    "altitude": 17,
    "zone": -8,
    "dst": "A",
    "miles": 940,
    "cost": 635
  },
  {
    "airport_id": 3797,
    "name": "John F Kennedy Intl",
    "city": "New York",
    "country": "United States",
    "iata_faa": "JFK",
    "iaco": "KJFK",
    "latitude": 40.639751,
    "longitude": -73.778925,
    "altitude": 13,
    "zone": -5,
    "dst": "A",
    "miles": 2276,
    "cost": 709
  },
  {
    "airport_id": 3820,
    "name": "Buffalo Niagara Intl",
    "city": "Buffalo",
    "country": "United States",
    "iata_faa": "BUF",
    "iaco": "KBUF",
    "latitude": 42.940525,
    "longitude": -78.732167,
    "altitude": 724,
    "zone": -5,
    "dst": "A",
    "miles": 1978,
    "cost": 633
  },
  {
    "airport_id": 3830,
    "name": "Chicago Ohare Intl",
    "city": "Chicago",
    "country": "United States",
    "iata_faa": "ORD",
    "iaco": "KORD",
    "latitude": 41.978603,
    "longitude": -87.904842,
    "altitude": 668,
    "zone": -6,
    "dst": "A",
    "miles": 1566,
    "cost": 610
  },
  {
    "airport_id": 3858,
    "name": "Minneapolis St Paul Intl",
    "city": "Minneapolis",
    "country": "United States",
    "iata_faa": "MSP",
    "iaco": "KMSP",
    "latitude": 44.881956,
    "longitude": -93.221767,
    "altitude": 841,
    "zone": -6,
    "dst": "A",
    "miles": 1250,
    "cost": 637
  },
  {
    "airport_id": 3877,
    "name": "Mc Carran Intl",
    "city": "Las Vegas",
    "country": "United States",
    "iata_faa": "LAS",
    "iaco": "KLAS",
    "latitude": 36.080056,
    "longitude": -115.15225,
    "altitude": 2141,
    "zone": -8,
    "dst": "A",
    "miles": 733,
    "cost": 708
  },
  {
    "airport_id": 3930,
    "name": "Incheon Intl",
    "city": "Seoul",
    "country": "South Korea",
    "iata_faa": "ICN",
    "iaco": "RKSI",
    "latitude": 37.469075,
    "longitude": 126.450517,
    "altitude": 23,
    "zone": 9,
    "dst": "U",
    "miles": 5371,
    "cost": 1007
  },
  {
    "airport_id": 3941,
    "name": "Eleftherios Venizelos Intl",
    "city": "Athens",
    "country": "Greece",
    "iata_faa": "ATH",
    "iaco": "LGAV",
    "latitude": 37.936358,
    "longitude": 23.944467,
    "altitude": 308,
    "zone": 2,
    "dst": "E",
    "miles": 6187,
    "cost": 1101
  },
  {
    "airport_id": 4288,
    "name": "Heydar Aliyev",
    "city": "Baku",
    "country": "Azerbaijan",
    "iata_faa": "BAK",
    "iaco": "",
    "latitude": 40.4675,
    "longitude": 50.046667,
    "altitude": 10,
    "zone": 4,
    "dst": "E",
    "miles": 6409,
    "cost": 1033
  },
  {
    "airport_id": 6133,
    "name": "Tri Cities Airport",
    "city": "Pasco",
    "country": "United States",
    "iata_faa": "PSC",
    "iaco": "PSC",
    "latitude": 46.2647,
    "longitude": -119.119,
    "altitude": 410,
    "zone": -8,
    "dst": "A",
    "miles": 0,
    "cost": 0
  },
  {
    "airport_id": 7708,
    "name": "Amsterdam Centraal",
    "city": "Amsterdam",
    "country": "Netherlands",
    "iata_faa": "ZYA",
    "iaco": "",
    "latitude": 52.7873,
    "longitude": 4.90074,
    "altitude": 0,
    "zone": 1,
    "dst": "E",
    "miles": 4840,
    "cost": 857
  }
]